[
	{
		"title": "戊辰戦争前夜",
		"contents": "",
		"lat": "37.36037",
		"lng": "140.259705",
		"icon": "../"
	},
	{
		"title": "白河口の戦い",
		"contents": "白河口の戦い白河の地に多くの魂が散った　約100日間にわたる攻防戦",
		"lat": "37.124602",
		"lng": "140.207691",
		"icon": "../marker/fire.png"
	},
	{
		"title": "大壇口の戦い",
		"contents": "新政府軍と二本松軍が激突 二本松少年隊も出陣",
		"lat": "37.584174",
		"lng": "140.423942",
		"icon": "../marker/fire.png"
	},
	{
		"title": "母成（ぼなり）峠の戦い",
		"contents": "戊辰戦争激戦の地",
		"lat": "37.599",
		"lng": "140.247345",
		"icon": "../marker/fire.png"
	},
	{
		"title": "十六橋の戦い",
		"contents": "会津藩の旧式銃ｖｓ新政府軍の新式銃 力の差は歴然",
		"lat": "37.521542",
		"lng": "140.024464",
		"icon": "../marker/fire.png"
	},
	{
		"title": "戸ノ口原の戦い",
		"contents": "舞台は「白虎隊奮戦の地」戸ノ口原へ",
		"lat": "37.518406",
		"lng": "140.009208",
		"icon": "../marker/fire.png"
	},
{
		"title": "鶴ヶ城",
		"contents": "鶴ヶ城",
		"lat": "37.487731",
		"lng": "139.929857",
		"icon": "../marker/fire.png"
	},
	{
		"title": "一ノ堰の戦い",
		"contents": "会津戊辰戦争・終盤 八重の父はここで散る",
		"lat": "37.456941",
		"lng": "139.915116",
		"icon": "../marker/fire.png"
	},
	{
		"title": "棚倉藩",
		"contents": "棚倉藩",
		"lat": "37.029623",
		"lng": "140.385661",
		"icon": ""
	},
	{
		"title": "旧滝沢本陣",
		"contents": "旧滝沢本陣",
		"lat": "37.506117",
		"lng": "139.952688",
		"icon": ""
	},
	{
		"title": "大隣寺",
		"contents": "時代に翻弄された純粋な若き魂 藩主らとともに眠る",
		"lat": "37.592335",
		"lng": "140.423512",
		"icon": ""
	},
	{
		"title": "小田山",
		"contents": "「西軍砲台跡」に加えて、戊辰戦争関連の廟所・寺院が点在",
		"lat": "37.479354",
		"lng": "139.945908",
		"icon": ""
	},
	{
		"title": "稲荷山古戦場跡",
		"contents": "奥州街道を北上する新政府軍を迎え撃った激戦地",
		"lat": "37.118956",
		"lng": "140.204478",
		"icon": ""
	},
	{
		"title": "亀ヶ城",
		"contents": "長い歴史を見続けてきた 時代の証人",
		"lat": "37.561163",
		"lng": "140.103514",
		"icon": ""
	},
	{
		"title": "忠七桜",
		"contents": "会津戊辰戦争の犠牲者を偲ぶ桜",
		"lat": "37.37107",
		"lng": "140.505234",
		"icon": ""
	},
	{
		"title": "白河の慰霊碑",
		"contents": "御霊の冥福を願って　今もなお手向ける香華",
		"lat": "37.118408",
		"lng": "140.2034",
		"icon": ""
	},
	{
		"title": "旧滝沢本陣",
		"contents": "旧滝沢本陣",
		"lat": "37.506117",
		"lng": "139.952688",
		"icon": ""
	},
	{
		"title": "安達太良神社",
		"contents": "安達太良神社",
		"lat": "37.512517",
		"lng": "140.383129",
		"icon": ""
	},
	{
		"title": "会津新選組記念館",
		"contents": "会津新選組記念館",
		"lat": "37.500512",
		"lng": "139.92128",
		"icon": ""
	},
	{
		"title": "甲賀町口郭門跡",
		"contents": "甲賀町口郭門跡",
		"lat": "37.496254",
		"lng": "139.93181",
		"icon": ""
	},
	{
		"title": "白虎隊記念館",
		"contents": "白虎隊記念館",
		"lat": "37.5045",
		"lng": "139.95331",
		"icon": ""
	},
	{
		"title": "中野竹子殉節之地碑",
		"contents": "中野竹子殉節之地碑",
		"lat": "37.510594",
		"lng": "139.906833",
		"icon": ""
	},
	{
		"title": "善龍寺",
		"contents": "善龍寺",
		"lat": "37.479558",
		"lng": "139.940811",
		"icon": ""
	},
	{
		"title": "秀長寺古戦場",
		"contents": "秀長寺古戦場",
		"lat": "37.487144",
		"lng": "139.910846",
		"icon": ""
	},
	{
		"title": "白河の慰霊碑",
		"contents": "御霊の冥福を願って　今もなお手向ける香華",
		"lat": "37.118408",
		"lng": "140.2034",
		"icon": ""
	},
	{
		"title": "ふるさと自慢館",
		"contents": "ふるさと自慢館",
		"lat": "37.585891",
		"lng": "139.646187",
		"icon": ""
	},
	{
		"title": "白虎隊記念館",
		"contents": "白虎隊記念館",
		"lat": "37.5045",
		"lng": "139.95331",
		"icon": ""
	},
	{
		"title": "阿弥陀寺",
		"contents": "阿弥陀寺",
		"lat": "37.500568",
		"lng": "139.919086",
		"icon": ""
	}
]
